sep=,
CUSTOM.date [local],CUSTOM.updateTime [local],OSD.flyTime,OSD.flyTime [s],OSD.latitude,OSD.longitude,OSD.height [ft],OSD.heightMax [ft],OSD.vpsHeight [ft],OSD.altitude [ft],OSD.mileage [ft],OSD.hSpeed [MPH],OSD.hSpeedMax [MPH],OSD.xSpeed [MPH],OSD.xSpeedMax [MPH],OSD.ySpeed [MPH],OSD.ySpeedMax [MPH],OSD.zSpeed [MPH],OSD.zSpeedMax [MPH],OSD.pitch,OSD.roll,OSD.yaw,OSD.yaw [360],OSD.directionOfTravel,OSD.flycState,OSD.flycCommand,OSD.flightAction,OSD.gpsNum,OSD.gpsLevel,OSD.isGPSUsed,OSD.nonGPSCause,OSD.droneType,OSD.isSwaveWork,OSD.waveError,OSD.goHomeStatus,OSD.batteryType,OSD.ctrlDevice,OSD.isOnGround,OSD.isMotorOn,OSD.isMotorBlocked,OSD.motorStartFailedCause,OSD.motorFailReason,OSD.isImuPreheated,OSD.imuInitFailReason,OSD.isAcceletorOverRange,OSD.isBarometerDeadInAir,OSD.isCompassError,OSD.isGoHomeHeightModified,OSD.canIOCWork,OSD.isNotEnoughForce,OSD.isOutOfLimit,OSD.isPropellerCatapult,OSD.isVibrating,OSD.isVisionUsed,OSD.voltageWarning,GIMBAL.mode,GIMBAL.pitch,GIMBAL.roll,GIMBAL.yaw,GIMBAL.yaw [360],GIMBAL.isPitchAtLimit,GIMBAL.isRollAtLimit,GIMBAL.isYawAtLimit,GIMBAL.isStuck,CAMERA.isPhoto,CAMERA.isVideo,CAMERA.filename,CAMERA.sdCardIsInserted,CAMERA.sdCardState,RC.downlinkSignal,RC.uplinkSignal,RC.aileron,RC.elevator,RC.throttle,RC.rudder,RC.mode,RC.goHomeDepressed,RC.recordDepressed,RC.shutterDepressed,RC.playbackDepressed,RC.wheelDepressed,RC.wheelOffset,RC.custom1Depressed,RC.custom2Depressed,RC.custom3Depressed,RC.custom4Depressed,BATTERY.chargeLevel,BATTERY.currentPV [V],BATTERY.currentCapacity [mAh],BATTERY.fullCapacity [mAh],BATTERY.voltage [V],BATTERY.isCellVoltageEstimated,BATTERY.cellVoltage1 [V],BATTERY.cellVoltage2 [V],BATTERY.maxCellVoltageDeviation,BATTERY.isCellVoltageDeviationHigh,BATTERY.isVoltageLow,BATTERY.current [A],BATTERY.temperature [F],BATTERY.minTemperature [F],BATTERY.maxTemperature [F],BATTERY.usefulTime [s],BATTERY.goHomeTime [s],BATTERY.landTime [s],BATTERY.goHomeBattery,BATTERY.landBattery,BATTERY.safeFlyRadius,BATTERY.volumeConsume,BATTERY.status,BATTERY.goHomeStatus,BATTERY.goHomeCountdown,BATTERY.lowWarning,BATTERY.lowWarningGoHome,BATTERY.seriousLowWarning,BATTERY.seriousLowWarningLanding,BATTERY.timesCharged,MC.failSafeAction,MC.isObstacleAvoidanceEnabled,MC.isCollisionAvoidanceEnabled,MC.isRthObstacleAvoidanceEnabled,MC.isBraking,MC.isAvoidingObstacle,MC.isAvoidingActiveObstacle,MC.isAscentLimitedByObstacle,MC.isLandingConfirmationNeeded,MC.atLowAltitudeLimit,MC.atDistanceLimit,MC.atAirportAltitudeLimit,MC.atAirportBoundary,HOME.latitude,HOME.longitude,HOME.distance [ft],HOME.height [ft],HOME.heightLimit [ft],HOME.isHomeRecord,HOME.goHomeMode,HOME.aircraftHeadDirection,HOME.isDynamicHomePointEnabled,HOME.isReachedLimitDistance,HOME.isReachedLimitHeight,HOME.isCompassCalibrating,HOME.compassCalibrationState,HOME.isMultipleFlightModeEnabled,HOME.isBeginnerMode,HOME.isIOCEnabled,HOME.iocMode,HOME.goHomeHeight [ft],HOME.courseLockAngle,HOME.forceLandingHeight [ft],HOME.dataRecorderFileIndex,WEATHER.windDirection,WEATHER.windRelativeDirection,WEATHER.windSpeed [MPH],WEATHER.maxWindSpeed [MPH],WEATHER.windStrength,WEATHER.isFacingWind,WEATHER.isFlyingIntoWind,RECOVER.appType,RECOVER.appVersion,RECOVER.aircraftName,RECOVER.aircraftSerial,RECOVER.cameraSerial,RECOVER.rcSerial,RECOVER.batterySerial,DETAILS.totalTime [s],DETAILS.totalDistance [ft],DETAILS.maxHeight [ft],DETAILS.maxHorizontalSpeed [MPH],DETAILS.maxVerticalSpeed [MPH],DETAILS.photoNum,DETAILS.videoTime [s],DETAILS.aircraftName,DETAILS.aircraftSerial,DETAILS.cameraSerial,DETAILS.rcSerial,DETAILS.batterySerial,DETAILS.appName,DETAILS.appType,DETAILS.appVersion,DETAILS.guid,SERIAL.flightController,SERIAL.camera,SERIAL.gimbal,SERIAL.rc,SERIAL.battery,SERIAL.battery2,APPGPS.latitude,APPGPS.longitude,APPGPS.accuracy,APP.tip,APP.warning
7/11/2026,7:25:07.02 PM,0m 0.0s,0.0,47.7061318158591,11.7402183044665,0,0,0.3,2389,0,0,0,0,0,0,0,0,0,0.3,0.3,49,49,,P-GPS,Auto Fly,,26,5,True,,Mini 4 Pro,False,False,,Smart,RC,True,True,False,,,True,,False,False,False,False,False,False,False,False,False,False,0,Follow Yaw,0,0,41.8,41.8,False,False,False,False,False,False,,True,Normal,100,,1024,1024,1024,1024,,False,False,False,False,False,0,False,False,False,False,53,7.593,1313,2494,7.593,False,3.798,3.795,0.003,False,False,1.239,109.8,109.7,109.7,,,,,,,,,Idle,,,,,,4,Go Home,False,False,False,False,False,False,False,False,False,False,False,False,,,,,,False,,,False,False,False,False,,False,False,False,,,,,,,,,,Calm,False,False,,1.11.99,DJI Mini 4 Pro,1581F6Z9C23AL003,6TVFL9Q0M2X6V9,6UZBL93021065D,7BVPM5DDA201D2,191.3,3.5,62.3,27.100304,9.618842,0,0,DJI Mini 4 Pro,1581F6Z9C23AL003,6TVFL9Q0M2X6V9,6UZBL93021065D,7BVPM5DDA201D2,DJI Fly,,1.11.99,7AF13900-8B81-53DC-83AD-699DD8891660,1581F6Z9C23AL003CW6K,6TVFL9Q0M2X6V9,,6UZBL93021065D,7BVPM5DDA201D2,,,,,Aircraft not in flight. Vision systems and obstacle avoidance disabled (Code: 180059).; Flight mode changed to P-GPS.,
7/11/2026,7:25:07.11 PM,0m 0.1s,0.1,47.7061318120463,11.7402183065737,0,0,0.3,2389,0,0,0,0,0,0,0,0,0,0.3,0.3,48.9,48.9,,Starting Motors,Auto Fly,,26,5,True,,Mini 4 Pro,False,False,,Smart,RC,True,True,False,,,True,,False,False,False,False,False,False,False,False,False,False,0,Follow Yaw,0,0,41.8,41.8,False,False,False,False,False,False,,True,Normal,100,,1024,1024,1024,1024,,False,False,False,False,False,0,False,False,False,False,53,7.593,1313,2494,7.593,False,3.798,3.795,0.003,False,False,1.239,109.8,109.7,109.7,,,,,,,,,Idle,,,,,,4,Go Home,False,False,False,False,False,False,False,False,False,False,False,False,,,,,,False,,,False,False,False,False,,False,False,False,,,,,,,,,,Calm,False,False,,1.11.99,DJI Mini 4 Pro,1581F6Z9C23AL003,6TVFL9Q0M2X6V9,6UZBL93021065D,7BVPM5DDA201D2,191.3,3.5,62.3,27.100304,9.618842,0,0,DJI Mini 4 Pro,1581F6Z9C23AL003,6TVFL9Q0M2X6V9,6UZBL93021065D,7BVPM5DDA201D2,DJI Fly,,1.11.99,7AF13900-8B81-53DC-83AD-699DD8891660,1581F6Z9C23AL003CW6K,6TVFL9Q0M2X6V9,,6UZBL93021065D,7BVPM5DDA201D2,,,,,Flight mode changed to Starting Motors.,
7/11/2026,7:25:07.21 PM,0m 0.2s,0.2,47.706131815782,11.7402183012707,0,0,0.3,2389,0,0,0,0,0,0,0,0,0,0.3,0.3,48.9,48.9,,Starting Motors,Auto Fly,,26,5,True,,Mini 4 Pro,False,False,,Smart,RC,True,True,False,,,True,,False,False,False,False,False,False,False,False,False,False,0,Follow Yaw,0,0,41.8,41.8,False,False,False,False,False,False,,True,Normal,100,,1024,1024,1024,1024,,False,False,False,False,False,0,False,False,False,False,53,7.593,1313,2494,7.593,False,3.798,3.795,0.003,False,False,1.239,109.8,109.7,109.7,,,,,,,,,Idle,,,,,,4,Go Home,False,False,False,False,False,False,False,False,False,False,False,False,,,,,,False,,,False,False,False,False,,False,False,False,,,,,,,,,,Calm,False,False,,1.11.99,DJI Mini 4 Pro,1581F6Z9C23AL003,6TVFL9Q0M2X6V9,6UZBL93021065D,7BVPM5DDA201D2,191.3,3.5,62.3,27.100304,9.618842,0,0,DJI Mini 4 Pro,1581F6Z9C23AL003,6TVFL9Q0M2X6V9,6UZBL93021065D,7BVPM5DDA201D2,DJI Fly,,1.11.99,7AF13900-8B81-53DC-83AD-699DD8891660,1581F6Z9C23AL003CW6K,6TVFL9Q0M2X6V9,,6UZBL93021065D,7BVPM5DDA201D2,,,,,,
7/11/2026,7:25:07.31 PM,0m 0.3s,0.3,47.7061318389414,11.7402183404292,0,0,0.3,2389,0,0,0,0,0,0,0,0,0,0.2,0.3,49.2,49.2,,Starting Motors,Auto Fly,,26,5,True,,Mini 4 Pro,True,False,,Smart,RC,True,True,False,,,True,,False,False,False,False,False,False,False,False,False,False,0,Follow Yaw,0,0,41.8,41.8,False,False,False,False,False,False,,True,Normal,100,,1024,1024,1024,1024,,False,False,False,False,False,0,False,False,False,False,53,7.593,1313,2494,7.593,False,3.798,3.795,0.003,False,False,1.239,109.8,109.7,109.7,,,,,,,,,Idle,,,,,,4,Go Home,False,False,False,False,False,False,False,False,False,False,False,False,47.7061416690814,11.7402437187005,7.1,2351.1,393.7,True,1,1,False,False,False,False,,True,False,False,,164,,16.4,59,,,,,Calm,False,False,,1.11.99,DJI Mini 4 Pro,1581F6Z9C23AL003,6TVFL9Q0M2X6V9,6UZBL93021065D,7BVPM5DDA201D2,191.3,3.5,62.3,27.100304,9.618842,0,0,DJI Mini 4 Pro,1581F6Z9C23AL003,6TVFL9Q0M2X6V9,6UZBL93021065D,7BVPM5DDA201D2,DJI Fly,,1.11.99,7AF13900-8B81-53DC-83AD-699DD8891660,1581F6Z9C23AL003CW6K,6TVFL9Q0M2X6V9,,6UZBL93021065D,7BVPM5DDA201D2,,,,,Data Recorder File Index is 59.; Set Return to Home (RTH) altitude to 50 m (164 ft).; Set maximum flight altitude to 120 m (394 ft).,
7/11/2026,7:25:07.41 PM,0m 0.4s,0.4,47.7061318260979,11.7402183176191,0,0,0.3,2389,0,0,0,0,0,0,0,0,0,0.2,0.3,49.1,49.1,,Starting Motors,Auto Fly,,26,5,True,,Mini 4 Pro,True,False,,Smart,RC,True,True,False,,,True,,False,False,False,False,False,False,False,False,False,False,0,Follow Yaw,0,0,41.8,41.8,False,False,False,False,False,False,,True,Normal,100,,1024,1024,1024,1024,,False,False,False,False,False,0,False,False,False,False,53,7.593,1313,2494,7.593,False,3.798,3.795,0.003,False,False,1.239,109.8,109.7,109.7,,,,,,,,,Idle,,,,,,4,Go Home,False,False,False,False,False,False,False,False,False,False,False,False,47.7061416690814,11.7402437187005,7.1,2351.1,393.7,True,1,1,False,False,False,False,,True,False,False,,164,,16.4,59,,,,,Calm,False,False,,1.11.99,DJI Mini 4 Pro,1581F6Z9C23AL003,6TVFL9Q0M2X6V9,6UZBL93021065D,7BVPM5DDA201D2,191.3,3.5,62.3,27.100304,9.618842,0,0,DJI Mini 4 Pro,1581F6Z9C23AL003,6TVFL9Q0M2X6V9,6UZBL93021065D,7BVPM5DDA201D2,DJI Fly,,1.11.99,7AF13900-8B81-53DC-83AD-699DD8891660,1581F6Z9C23AL003CW6K,6TVFL9Q0M2X6V9,,6UZBL93021065D,7BVPM5DDA201D2,,,,,,
7/11/2026,7:25:07.52 PM,0m 0.5s,0.5,47.7061318560089,11.740218389538,0,0,0.3,2389,0,0,0,0,0,0,0,0,0,0.2,0.3,49.1,49.1,,Starting Motors,Auto Fly,,26,5,True,,Mini 4 Pro,True,False,,Smart,RC,True,True,False,,,True,,False,False,False,False,False,False,False,False,False,False,0,Follow Yaw,0,0,41.8,41.8,False,False,False,False,False,False,,True,Normal,100,100,1024,1024,1024,1024,,False,False,False,False,False,0,False,False,False,False,53,7.593,1313,2494,7.593,False,3.798,3.795,0.003,False,False,1.239,109.8,109.7,109.7,,,,,,,,,Idle,,,,,,4,Go Home,False,False,False,False,False,False,False,False,False,False,False,False,47.7061416690814,11.7402437187005,7.1,2351.1,393.7,True,1,1,False,False,False,False,,True,False,False,,164,,16.4,59,,,,,Calm,False,False,,1.11.99,DJI Mini 4 Pro,1581F6Z9C23AL003,6TVFL9Q0M2X6V9,6UZBL93021065D,7BVPM5DDA201D2,191.3,3.5,62.3,27.100304,9.618842,0,0,DJI Mini 4 Pro,1581F6Z9C23AL003,6TVFL9Q0M2X6V9,6UZBL93021065D,7BVPM5DDA201D2,DJI Fly,,1.11.99,7AF13900-8B81-53DC-83AD-699DD8891660,1581F6Z9C23AL003CW6K,6TVFL9Q0M2X6V9,,6UZBL93021065D,7BVPM5DDA201D2,,,,,,
7/11/2026,7:25:07.62 PM,0m 0.6s,0.6,47.7061318290624,11.7402183195098,0,0,0.3,2389,0,0,0,0,0,0,0,0,0,0.2,0.3,49.1,49.1,,Starting Motors,Auto Fly,,26,5,True,,Mini 4 Pro,True,False,,Smart,RC,True,True,False,,,True,,False,False,False,False,False,False,False,False,False,False,0,Follow Yaw,0,0,41.8,41.8,False,False,False,False,False,False,,True,Normal,100,100,1024,1024,1024,1024,,False,False,False,False,False,0,False,False,False,False,53,7.593,1313,2494,7.593,False,3.798,3.795,0.003,False,False,1.239,109.8,109.7,109.7,,,,,,,,,Idle,,,,,,4,Go Home,False,False,False,False,False,False,False,False,False,False,False,False,47.7061416690814,11.7402437187005,7.1,2351.1,393.7,True,1,1,False,False,False,False,,True,False,False,,164,,16.4,59,,,,,Calm,False,False,,1.11.99,DJI Mini 4 Pro,1581F6Z9C23AL003,6TVFL9Q0M2X6V9,6UZBL93021065D,7BVPM5DDA201D2,191.3,3.5,62.3,27.100304,9.618842,0,0,DJI Mini 4 Pro,1581F6Z9C23AL003,6TVFL9Q0M2X6V9,6UZBL93021065D,7BVPM5DDA201D2,DJI Fly,,1.11.99,7AF13900-8B81-53DC-83AD-699DD8891660,1581F6Z9C23AL003CW6K,6TVFL9Q0M2X6V9,,6UZBL93021065D,7BVPM5DDA201D2,,,,,,
7/11/2026,7:25:07.72 PM,0m 0.7s,0.7,47.7061318590849,11.7402183011943,0,0,0.3,2389,0,0,0,0,0,0,0,0,0,0.2,0.2,49.3,49.3,,Starting Motors,Auto Fly,,26,5,True,,Mini 4 Pro,True,False,,Smart,RC,True,True,False,,,True,,False,False,False,False,False,False,False,False,False,False,0,Follow Yaw,0,0,41.8,41.8,False,False,False,False,False,False,,True,Normal,100,100,1024,1024,1024,1024,,False,False,False,False,False,0,False,False,False,False,53,7.593,1313,2494,7.593,False,3.798,3.795,0.003,False,False,1.239,109.8,109.7,109.7,,,,,,,,,Idle,,,,,,4,Go Home,False,False,False,False,False,False,False,False,False,False,False,False,47.7061416690814,11.7402437187005,7.1,2351.1,393.7,True,1,1,False,False,False,False,,True,False,False,,164,,16.4,59,,,,,Calm,False,False,,1.11.99,DJI Mini 4 Pro,1581F6Z9C23AL003,6TVFL9Q0M2X6V9,6UZBL93021065D,7BVPM5DDA201D2,191.3,3.5,62.3,27.100304,9.618842,0,0,DJI Mini 4 Pro,1581F6Z9C23AL003,6TVFL9Q0M2X6V9,6UZBL93021065D,7BVPM5DDA201D2,DJI Fly,,1.11.99,7AF13900-8B81-53DC-83AD-699DD8891660,1581F6Z9C23AL003CW6K,6TVFL9Q0M2X6V9,,6UZBL93021065D,7BVPM5DDA201D2,,,,,,
7/11/2026,7:25:07.82 PM,0m 0.8s,0.8,47.7061318206058,11.7402183001566,0,0,0.3,2389,0,0,0,0,0,0,0,0,0,0.2,0.2,49.3,49.3,,Starting Motors,Auto Fly,,26,5,True,,Mini 4 Pro,True,False,,Smart,RC,True,True,False,,,True,,False,False,False,False,False,False,False,False,False,False,0,Follow Yaw,0,0,41.8,41.8,False,False,False,False,False,False,,True,Normal,100,100,1024,1024,1024,1024,,False,False,False,False,False,0,False,False,False,False,53,7.593,1313,2494,7.593,False,3.798,3.795,0.003,False,False,1.239,109.8,109.7,109.7,,,,,,,,,Idle,,,,,,4,Go Home,False,False,False,False,False,False,False,False,False,False,False,False,47.7061416690814,11.7402437187005,7.2,2351.1,393.7,True,1,1,False,False,False,False,,True,False,False,,164,,16.4,59,,,,,Calm,False,False,,1.11.99,DJI Mini 4 Pro,1581F6Z9C23AL003,6TVFL9Q0M2X6V9,6UZBL93021065D,7BVPM5DDA201D2,191.3,3.5,62.3,27.100304,9.618842,0,0,DJI Mini 4 Pro,1581F6Z9C23AL003,6TVFL9Q0M2X6V9,6UZBL93021065D,7BVPM5DDA201D2,DJI Fly,,1.11.99,7AF13900-8B81-53DC-83AD-699DD8891660,1581F6Z9C23AL003CW6K,6TVFL9Q0M2X6V9,,6UZBL93021065D,7BVPM5DDA201D2,,,,,,
7/11/2026,7:25:07.92 PM,0m 0.9s,0.9,47.706131859042,11.7402183491891,0,0,0.3,2389,0.1,0,0,0,0,0,0,0,0,0.2,0.2,49.4,49.4,,Starting Motors,Auto Fly,,26,5,True,,Mini 4 Pro,True,False,,Smart,RC,True,True,False,,,True,,False,False,False,False,False,False,False,False,False,False,0,Follow Yaw,0,0,41.8,41.8,False,False,False,False,False,False,,True,Normal,100,100,1024,1024,1024,1024,,False,False,False,False,False,0,False,False,False,False,53,7.593,1313,2494,7.593,False,3.798,3.795,0.003,False,False,1.239,109.8,109.7,109.7,,,,,,,,,Idle,,,,,,4,Go Home,False,False,False,False,False,False,False,False,False,False,False,False,47.7061416690814,11.7402437187005,7.1,2351.1,393.7,True,1,1,False,False,False,False,,True,False,False,,164,,16.4,59,,,,,Calm,False,False,,1.11.99,DJI Mini 4 Pro,1581F6Z9C23AL003,6TVFL9Q0M2X6V9,6UZBL93021065D,7BVPM5DDA201D2,191.3,3.5,62.3,27.100304,9.618842,0,0,DJI Mini 4 Pro,1581F6Z9C23AL003,6TVFL9Q0M2X6V9,6UZBL93021065D,7BVPM5DDA201D2,DJI Fly,,1.11.99,7AF13900-8B81-53DC-83AD-699DD8891660,1581F6Z9C23AL003CW6K,6TVFL9Q0M2X6V9,,6UZBL93021065D,7BVPM5DDA201D2,,,,,,
7/11/2026,7:25:08.02 PM,0m 1.0s,1.0,47.7061319113285,11.740218427366,0,0,0.3,2389,0.1,0,0,0,0,0,0,0,0,0.3,0.3,49.5,49.5,,Starting Motors,Auto Fly,,26,5,True,,Mini 4 Pro,True,False,,Smart,RC,True,True,False,,,True,,False,False,False,False,False,False,False,False,False,False,0,Follow Yaw,0,0,41.8,41.8,False,False,False,False,False,False,,True,Normal,100,100,1024,1024,1024,1024,,False,False,False,False,False,0,False,False,False,False,53,7.593,1313,2494,7.593,False,3.798,3.795,0.003,False,False,1.239,109.8,109.7,109.7,,,,,,,,,Idle,,,,,,4,Go Home,False,False,False,False,False,False,False,False,False,False,False,False,47.7061416690814,11.7402437187005,7.1,2351.1,393.7,True,1,1,False,False,False,False,,True,False,False,,164,,16.4,59,,,,,Calm,False,False,,1.11.99,DJI Mini 4 Pro,1581F6Z9C23AL003,6TVFL9Q0M2X6V9,6UZBL93021065D,7BVPM5DDA201D2,191.3,3.5,62.3,27.100304,9.618842,0,0,DJI Mini 4 Pro,1581F6Z9C23AL003,6TVFL9Q0M2X6V9,6UZBL93021065D,7BVPM5DDA201D2,DJI Fly,,1.11.99,7AF13900-8B81-53DC-83AD-699DD8891660,1581F6Z9C23AL003CW6K,6TVFL9Q0M2X6V9,,6UZBL93021065D,7BVPM5DDA201D2,,,,,,
7/11/2026,7:25:08.12 PM,0m 1.1s,1.1,47.7061319326587,11.7402184554091,0,0,0.3,2389,0.1,0,0,0,0,0,0,0,0,0.2,0.2,49.5,49.5,,Starting Motors,Auto Fly,,26,5,True,,Mini 4 Pro,True,False,,Smart,RC,True,True,False,,,True,,False,False,False,False,False,False,False,False,False,False,0,Follow Yaw,0,0,41.8,41.8,False,False,False,False,False,False,,True,Normal,100,100,1024,1024,1024,1024,,False,False,False,False,False,0,False,False,False,False,53,7.593,1313,2494,7.593,False,3.798,3.795,0.003,False,False,1.239,109.8,109.7,109.7,,,,,,,,,Idle,,,,,,4,Go Home,False,False,False,False,False,False,False,False,False,False,False,False,47.7061416690814,11.7402437187005,7.1,2351.1,393.7,True,1,1,False,False,False,False,,True,False,False,,164,,16.4,59,,,,,Calm,False,False,,1.11.99,DJI Mini 4 Pro,1581F6Z9C23AL003,6TVFL9Q0M2X6V9,6UZBL93021065D,7BVPM5DDA201D2,191.3,3.5,62.3,27.100304,9.618842,0,0,DJI Mini 4 Pro,1581F6Z9C23AL003,6TVFL9Q0M2X6V9,6UZBL93021065D,7BVPM5DDA201D2,DJI Fly,,1.11.99,7AF13900-8B81-53DC-83AD-699DD8891660,1581F6Z9C23AL003CW6K,6TVFL9Q0M2X6V9,,6UZBL93021065D,7BVPM5DDA201D2,,,,,,
7/11/2026,7:25:08.23 PM,0m 1.2s,1.2,47.7061319766984,11.7402185266468,0,0,0.3,2389,0.1,0,0,0,0,0,0,0,0,0.3,0.3,49.4,49.4,,Starting Motors,Auto Fly,,26,5,True,,Mini 4 Pro,True,False,,Smart,RC,True,True,False,,,True,,False,False,False,False,False,False,False,False,False,False,0,Follow Yaw,0,0,41.8,41.8,False,False,False,False,False,False,,True,Normal,100,100,1024,1024,1024,1024,,False,False,False,False,False,0,False,False,False,False,53,7.593,1313,2494,7.593,False,3.798,3.795,0.003,False,False,1.239,109.8,109.7,109.7,,,,,,,,,Idle,,,,,,4,Go Home,False,False,False,False,False,False,False,False,False,False,False,False,47.7061416690814,11.7402437187005,7.1,2351.1,393.7,True,1,1,False,False,False,False,,True,False,False,,164,,16.4,59,,,,,Calm,False,False,,1.11.99,DJI Mini 4 Pro,1581F6Z9C23AL003,6TVFL9Q0M2X6V9,6UZBL93021065D,7BVPM5DDA201D2,191.3,3.5,62.3,27.100304,9.618842,0,0,DJI Mini 4 Pro,1581F6Z9C23AL003,6TVFL9Q0M2X6V9,6UZBL93021065D,7BVPM5DDA201D2,DJI Fly,,1.11.99,7AF13900-8B81-53DC-83AD-699DD8891660,1581F6Z9C23AL003CW6K,6TVFL9Q0M2X6V9,,6UZBL93021065D,7BVPM5DDA201D2,,,,,,
7/11/2026,7:25:08.33 PM,0m 1.3s,1.3,47.7061319143316,11.7402184420719,0,0,0.3,2389,0.1,0,0,0,0,0,0,0,0,0.3,0.3,49.4,49.4,,Starting Motors,Auto Fly,,26,5,True,,Mini 4 Pro,True,False,,Smart,RC,True,True,False,,,True,,False,False,False,False,False,False,False,False,False,False,0,Follow Yaw,0,0,41.8,41.8,False,False,False,False,False,False,,True,Normal,100,100,1024,1024,1024,1024,,False,False,False,False,False,0,False,False,False,False,53,7.593,1313,2494,7.593,False,3.798,3.795,0.003,False,False,1.239,109.8,109.7,109.7,,,,,,,,,Idle,,,,,,4,Go Home,False,False,False,False,False,False,False,False,False,False,False,False,47.7061416690814,11.7402437187005,7.1,2351.1,393.7,True,1,1,False,False,False,False,,True,False,False,,164,,16.4,59,,,,,Calm,False,False,,1.11.99,DJI Mini 4 Pro,1581F6Z9C23AL003,6TVFL9Q0M2X6V9,6UZBL93021065D,7BVPM5DDA201D2,191.3,3.5,62.3,27.100304,9.618842,0,0,DJI Mini 4 Pro,1581F6Z9C23AL003,6TVFL9Q0M2X6V9,6UZBL93021065D,7BVPM5DDA201D2,DJI Fly,,1.11.99,7AF13900-8B81-53DC-83AD-699DD8891660,1581F6Z9C23AL003CW6K,6TVFL9Q0M2X6V9,,6UZBL93021065D,7BVPM5DDA201D2,,,,,,
7/11/2026,7:25:08.43 PM,0m 1.4s,1.4,47.706131928516,11.7402184855021,0,0,0.3,2389,0.2,0,0,0,0,0,0,0,0,0.3,0.3,49.5,49.5,,Starting Motors,Auto Fly,,26,5,True,,Mini 4 Pro,True,False,,Smart,RC,True,True,False,,,True,,False,False,False,False,False,False,False,False,False,False,0,Follow Yaw,0,0,41.8,41.8,False,False,False,False,False,False,,True,Normal,100,100,1024,1024,1024,1024,,False,False,False,False,False,0,False,False,False,False,53,7.593,1313,2494,7.593,False,3.798,3.795,0.003,False,False,1.239,109.8,109.7,109.7,,,,,,,,,Idle,,,,,,4,Go Home,False,False,False,False,False,False,False,False,False,False,False,False,47.7061416690814,11.7402437187005,7.1,2351.1,393.7,True,1,1,False,False,False,False,,True,False,False,,164,,16.4,59,,,,,Calm,False,False,,1.11.99,DJI Mini 4 Pro,1581F6Z9C23AL003,6TVFL9Q0M2X6V9,6UZBL93021065D,7BVPM5DDA201D2,191.3,3.5,62.3,27.100304,9.618842,0,0,DJI Mini 4 Pro,1581F6Z9C23AL003,6TVFL9Q0M2X6V9,6UZBL93021065D,7BVPM5DDA201D2,DJI Fly,,1.11.99,7AF13900-8B81-53DC-83AD-699DD8891660,1581F6Z9C23AL003CW6K,6TVFL9Q0M2X6V9,,6UZBL93021065D,7BVPM5DDA201D2,,,,,,
7/11/2026,7:25:08.53 PM,0m 1.5s,1.5,47.7061319191983,11.7402184435488,0,0,0.3,2389,0.2,0,0,0,0,0,0,0,0,0.2,0.2,49.6,49.6,,Starting Motors,Auto Fly,,26,5,True,,Mini 4 Pro,True,False,,Smart,RC,True,True,False,,,True,,False,False,False,False,False,False,False,False,False,False,0,Follow Yaw,0,0,41.8,41.8,False,False,False,False,False,False,,True,Normal,100,100,1024,1024,1024,1024,,False,False,False,False,False,0,False,False,False,False,53,7.593,1313,2494,7.593,False,3.798,3.795,0.003,False,False,1.239,109.8,109.7,109.7,,,,,,,,,Idle,,,,,,4,Go Home,False,False,False,False,False,False,False,False,False,False,False,False,47.7061416690814,11.7402437187005,7.1,2351.1,393.7,True,1,1,False,False,False,False,,True,False,False,,164,,16.4,59,,,,,Calm,False,False,,1.11.99,DJI Mini 4 Pro,1581F6Z9C23AL003,6TVFL9Q0M2X6V9,6UZBL93021065D,7BVPM5DDA201D2,191.3,3.5,62.3,27.100304,9.618842,0,0,DJI Mini 4 Pro,1581F6Z9C23AL003,6TVFL9Q0M2X6V9,6UZBL93021065D,7BVPM5DDA201D2,DJI Fly,,1.11.99,7AF13900-8B81-53DC-83AD-699DD8891660,1581F6Z9C23AL003CW6K,6TVFL9Q0M2X6V9,,6UZBL93021065D,7BVPM5DDA201D2,,,,,,
7/11/2026,7:25:08.63 PM,0m 1.6s,1.6,47.7061319357732,11.7402184906715,0,0,0.3,2389,0.2,0,0,0,0,0,0,0,0,0.3,0.3,49.4,49.4,,Auto Takeoff,Auto Fly,,26,5,True,,Mini 4 Pro,True,False,,Smart,RC,True,True,False,,,True,,False,False,False,False,False,False,False,False,False,False,0,Follow Yaw,0,0,41.8,41.8,False,False,False,False,False,False,,True,Normal,100,100,1024,1024,1024,1024,,False,False,False,False,False,0,False,False,False,False,53,7.548,1313,2494,7.548,False,3.776,3.772,0.004,False,False,1.239,109.8,109.7,109.7,,,,,,,,,Idle,,,,,,4,Go Home,False,False,False,False,False,False,False,False,False,False,False,False,47.7061416690814,11.7402437187005,7.1,2351.1,393.7,True,1,1,False,False,False,False,,True,False,False,,164,,16.4,59,,,,,Calm,False,False,,1.11.99,DJI Mini 4 Pro,1581F6Z9C23AL003,6TVFL9Q0M2X6V9,6UZBL93021065D,7BVPM5DDA201D2,191.3,3.5,62.3,27.100304,9.618842,0,0,DJI Mini 4 Pro,1581F6Z9C23AL003,6TVFL9Q0M2X6V9,6UZBL93021065D,7BVPM5DDA201D2,DJI Fly,,1.11.99,7AF13900-8B81-53DC-83AD-699DD8891660,1581F6Z9C23AL003CW6K,6TVFL9Q0M2X6V9,,6UZBL93021065D,7BVPM5DDA201D2,,,,,Flight mode changed to Auto Takeoff.,
7/11/2026,7:25:08.73 PM,0m 1.7s,1.7,47.7061318984808,11.7402184167408,0,0,0.3,2389,0.2,0,0,0,0,0,0,0,0,0.3,0.3,49.4,49.4,,Auto Takeoff,Auto Fly,,26,5,True,,Mini 4 Pro,True,False,,Smart,RC,True,True,False,,,True,,False,False,False,False,False,False,False,False,False,False,0,Follow Yaw,0,0,41.8,41.8,False,False,False,False,False,False,,True,Normal,100,100,1024,1024,1024,1024,,False,False,False,False,False,0,False,False,False,False,53,7.548,1313,2494,7.548,False,3.776,3.772,0.004,False,False,1.239,109.8,109.7,109.7,,,,,,,,,Idle,,,,,,4,Go Home,False,False,False,False,False,False,False,False,False,False,False,False,47.7061416690814,11.7402437187005,7.1,2351.1,393.7,True,1,1,False,False,False,False,,True,False,False,,164,,16.4,59,,,,,Calm,False,False,,1.11.99,DJI Mini 4 Pro,1581F6Z9C23AL003,6TVFL9Q0M2X6V9,6UZBL93021065D,7BVPM5DDA201D2,191.3,3.5,62.3,27.100304,9.618842,0,0,DJI Mini 4 Pro,1581F6Z9C23AL003,6TVFL9Q0M2X6V9,6UZBL93021065D,7BVPM5DDA201D2,DJI Fly,,1.11.99,7AF13900-8B81-53DC-83AD-699DD8891660,1581F6Z9C23AL003CW6K,6TVFL9Q0M2X6V9,,6UZBL93021065D,7BVPM5DDA201D2,,,,,,
7/11/2026,7:25:08.80 PM,0m 1.8s,1.8,47.7061319222399,11.7402184762265,0,0,0.3,2389,0.2,0,0,0,0,0,0,0,0,0.2,0.3,49.3,49.3,,Auto Takeoff,Auto Fly,,26,5,True,,Mini 4 Pro,True,False,,Smart,RC,True,True,False,,,True,,False,False,False,False,False,False,False,False,False,False,0,Follow Yaw,0,0,41.8,41.8,False,False,False,False,False,False,,True,Normal,100,100,1024,1024,1024,1024,,False,False,False,False,False,0,False,False,False,False,53,7.548,1313,2494,7.548,False,3.776,3.772,0.004,False,False,1.239,109.8,109.7,109.7,,,,,,,,,Idle,,,,,,4,Go Home,False,False,False,False,False,False,False,False,False,False,False,False,47.7061416690814,11.7402437187005,7.1,2351.1,393.7,True,1,1,False,False,False,False,,True,False,False,,164,,16.4,59,,,,,Calm,False,False,,1.11.99,DJI Mini 4 Pro,1581F6Z9C23AL003,6TVFL9Q0M2X6V9,6UZBL93021065D,7BVPM5DDA201D2,191.3,3.5,62.3,27.100304,9.618842,0,0,DJI Mini 4 Pro,1581F6Z9C23AL003,6TVFL9Q0M2X6V9,6UZBL93021065D,7BVPM5DDA201D2,DJI Fly,,1.11.99,7AF13900-8B81-53DC-83AD-699DD8891660,1581F6Z9C23AL003CW6K,6TVFL9Q0M2X6V9,,6UZBL93021065D,7BVPM5DDA201D2,,,,,,
7/11/2026,7:25:08.90 PM,0m 1.9s,1.9,47.7061319401643,11.7402183405374,0,0,0.3,2389,0.3,0,0,0,0,0,0,0,0,0.2,0.3,49.3,49.3,,Auto Takeoff,Auto Fly,,26,5,True,,Mini 4 Pro,True,False,,Smart,RC,True,True,False,,,True,,False,False,False,False,False,False,False,False,False,False,0,Follow Yaw,0,0,41.8,41.8,False,False,False,False,False,False,,True,Normal,100,100,1024,1024,1024,1024,,False,False,False,False,False,0,False,False,False,False,53,7.548,1313,2494,7.548,False,3.776,3.772,0.004,False,False,1.239,109.8,109.7,109.7,,,,,,,,,Idle,,,,,,4,Go Home,False,False,False,False,False,False,False,False,False,False,False,False,47.7061416690814,11.7402437187005,7.1,2351.1,393.7,True,1,1,False,False,False,False,,True,False,False,,164,,16.4,59,,,,,Calm,False,False,,1.11.99,DJI Mini 4 Pro,1581F6Z9C23AL003,6TVFL9Q0M2X6V9,6UZBL93021065D,7BVPM5DDA201D2,191.3,3.5,62.3,27.100304,9.618842,0,0,DJI Mini 4 Pro,1581F6Z9C23AL003,6TVFL9Q0M2X6V9,6UZBL93021065D,7BVPM5DDA201D2,DJI Fly,,1.11.99,7AF13900-8B81-53DC-83AD-699DD8891660,1581F6Z9C23AL003CW6K,6TVFL9Q0M2X6V9,,6UZBL93021065D,7BVPM5DDA201D2,,,,,,
7/11/2026,7:25:09.00 PM,0m 2.0s,2.0,47.7061319177417,11.7402183128763,0,0,0.3,2389,0.3,0,0,0,0,0,0,0,0,0.2,0.3,49.4,49.4,,Auto Takeoff,Auto Fly,,25,5,True,,Mini 4 Pro,True,False,,Smart,RC,True,True,False,,,True,,False,False,False,False,False,False,False,False,False,False,0,Follow Yaw,0,0,41.8,41.8,False,False,False,False,False,False,,True,Normal,100,100,1024,1024,1024,1024,,False,False,False,False,False,0,False,False,False,False,53,7.548,1312,2494,7.548,False,3.776,3.772,0.004,False,False,3.075,109.8,109.7,109.7,,,,,,,,,Idle,,,,,,4,Go Home,False,False,False,False,False,False,False,False,False,False,False,False,47.7061416690814,11.7402437187005,7.1,2351.1,393.7,True,1,1,False,False,False,False,,True,False,False,,164,,16.4,59,,,,,Calm,False,False,,1.11.99,DJI Mini 4 Pro,1581F6Z9C23AL003,6TVFL9Q0M2X6V9,6UZBL93021065D,7BVPM5DDA201D2,191.3,3.5,62.3,27.100304,9.618842,0,0,DJI Mini 4 Pro,1581F6Z9C23AL003,6TVFL9Q0M2X6V9,6UZBL93021065D,7BVPM5DDA201D2,DJI Fly,,1.11.99,7AF13900-8B81-53DC-83AD-699DD8891660,1581F6Z9C23AL003CW6K,6TVFL9Q0M2X6V9,,6UZBL93021065D,7BVPM5DDA201D2,,,,,,
7/11/2026,7:25:09.10 PM,0m 2.1s,2.1,47.7061319690172,11.7402183225656,0,0,0.3,2389,0.3,0,0,0,0,0,0,0,0,0,0.5,49.3,49.3,,Auto Takeoff,Auto Fly,,25,5,True,,Mini 4 Pro,True,False,,Smart,RC,True,True,False,,,True,,False,False,False,False,False,False,False,False,False,False,0,Follow Yaw,0,0,41.8,41.8,False,False,False,False,False,False,,True,Normal,100,100,1024,1024,1024,1024,,False,False,False,False,False,0,False,False,False,False,53,7.548,1312,2494,7.548,False,3.776,3.772,0.004,False,False,3.075,109.8,109.7,109.7,,,,,,,,,Idle,,,,,,4,Go Home,False,False,False,False,False,False,False,False,False,False,False,False,47.7061416690814,11.7402437187005,7.1,2351.1,393.7,True,1,1,False,False,False,False,,True,False,False,,164,,16.4,59,,,,,Calm,False,False,,1.11.99,DJI Mini 4 Pro,1581F6Z9C23AL003,6TVFL9Q0M2X6V9,6UZBL93021065D,7BVPM5DDA201D2,191.3,3.5,62.3,27.100304,9.618842,0,0,DJI Mini 4 Pro,1581F6Z9C23AL003,6TVFL9Q0M2X6V9,6UZBL93021065D,7BVPM5DDA201D2,DJI Fly,,1.11.99,7AF13900-8B81-53DC-83AD-699DD8891660,1581F6Z9C23AL003CW6K,6TVFL9Q0M2X6V9,,6UZBL93021065D,7BVPM5DDA201D2,,,,,,
7/11/2026,7:25:09.20 PM,0m 2.2s,2.2,47.7061320142565,11.740218311864,0,0,0.3,2389,0.3,0,0,0,0,0,0,-0.223694,0,-1.1,0.2,49.5,49.5,,Auto Takeoff,Auto Fly,,25,5,True,,Mini 4 Pro,True,False,,Smart,RC,False,True,False,,,True,,False,False,False,False,False,False,False,False,False,False,0,Follow Yaw,0,0,41.8,41.8,False,False,False,False,False,False,,True,Normal,100,100,1024,1024,1024,1024,,False,False,False,False,False,0,False,False,False,False,53,7.548,1312,2494,7.548,False,3.776,3.772,0.004,False,False,3.075,109.8,109.7,109.7,,,,,,,,,Idle,,,,,,4,Go Home,False,False,False,False,False,False,False,False,False,False,False,False,47.7061416690814,11.7402437187005,7.1,2351.1,393.7,True,1,1,False,False,False,False,,True,False,False,,164,,16.4,59,,,,,Calm,False,False,,1.11.99,DJI Mini 4 Pro,1581F6Z9C23AL003,6TVFL9Q0M2X6V9,6UZBL93021065D,7BVPM5DDA201D2,191.3,3.5,62.3,27.100304,9.618842,0,0,DJI Mini 4 Pro,1581F6Z9C23AL003,6TVFL9Q0M2X6V9,6UZBL93021065D,7BVPM5DDA201D2,DJI Fly,,1.11.99,7AF13900-8B81-53DC-83AD-699DD8891660,1581F6Z9C23AL003CW6K,6TVFL9Q0M2X6V9,,6UZBL93021065D,7BVPM5DDA201D2,,,,,,
7/11/2026,7:25:09.30 PM,0m 2.3s,2.3,47.7061320284837,11.7402182841583,0,0,0.3,2389,0.3,0.223694,0.223694,0.223694,0.223694,0,0,-0.671082,0,-0.2,0,49.6,49.6,307.3,Auto Takeoff,Auto Fly,,25,5,True,,Mini 4 Pro,True,False,,Smart,RC,False,True,False,,,True,,False,False,False,False,False,False,False,False,False,False,0,Follow Yaw,0,0,41.8,41.8,False,False,False,False,False,False,,True,Normal,100,100,1024,1024,1024,1024,,False,False,False,False,False,0,False,False,False,False,53,7.548,1312,2494,7.548,False,3.776,3.772,0.004,False,False,3.075,109.8,109.7,109.7,,,,,,,,,Idle,,,,,,4,Go Home,False,False,False,False,False,False,False,False,False,False,False,False,47.7061320202969,11.7402183049631,0.0,2351.1,393.7,True,1,1,False,False,False,False,,True,False,False,,164,,16.4,59,S,SE,2.01,2.01,Calm,False,False,,1.11.99,DJI Mini 4 Pro,1581F6Z9C23AL003,6TVFL9Q0M2X6V9,6UZBL93021065D,7BVPM5DDA201D2,191.3,3.5,62.3,27.100304,9.618842,0,0,DJI Mini 4 Pro,1581F6Z9C23AL003,6TVFL9Q0M2X6V9,6UZBL93021065D,7BVPM5DDA201D2,DJI Fly,,1.11.99,7AF13900-8B81-53DC-83AD-699DD8891660,1581F6Z9C23AL003CW6K,6TVFL9Q0M2X6V9,,6UZBL93021065D,7BVPM5DDA201D2,,,,,Home Point Updated.,
7/11/2026,7:25:09.40 PM,0m 2.4s,2.4,47.7061321270291,11.7402182903845,0,0,0.3,2389,0.3,0.223694,0.223694,0.223694,0.223694,0,0,-0.894776,0,1.1,0.2,49.6,49.6,2.4,Auto Takeoff,Auto Fly,,25,5,True,,Mini 4 Pro,True,False,,Smart,RC,False,True,False,,,True,,False,False,False,False,False,False,False,False,False,False,0,Follow Yaw,0,0,41.8,41.8,False,False,False,False,False,False,,True,Normal,100,100,1024,1024,1024,1024,,False,False,False,False,False,0,False,False,False,False,53,7.548,1312,2494,7.548,False,3.776,3.772,0.004,False,False,3.075,109.8,109.7,109.7,,,,,,,,,Idle,,,,,,4,Go Home,False,False,False,False,False,False,False,False,False,False,False,False,47.7061320202969,11.7402183049631,0.0,2351.1,393.7,True,1,1,False,False,False,False,,True,False,False,,164,,16.4,59,S,SE,2.01,2.01,Calm,False,False,,1.11.99,DJI Mini 4 Pro,1581F6Z9C23AL003,6TVFL9Q0M2X6V9,6UZBL93021065D,7BVPM5DDA201D2,191.3,3.5,62.3,27.100304,9.618842,0,0,DJI Mini 4 Pro,1581F6Z9C23AL003,6TVFL9Q0M2X6V9,6UZBL93021065D,7BVPM5DDA201D2,DJI Fly,,1.11.99,7AF13900-8B81-53DC-83AD-699DD8891660,1581F6Z9C23AL003CW6K,6TVFL9Q0M2X6V9,,6UZBL93021065D,7BVPM5DDA201D2,,,,,,
7/11/2026,7:25:09.50 PM,0m 2.5s,2.5,47.7061322164795,11.7402182553131,0,0,0.6,2389,0.4,0.223694,0.223694,0.223694,0.223694,0,0,-0.894776,0,1.4,0.9,49.6,49.6,345.2,Auto Takeoff,Auto Fly,,25,5,True,,Mini 4 Pro,True,False,,Smart,RC,False,True,False,,,True,,False,False,False,False,False,False,False,False,False,False,0,Follow Yaw,0,0,41.8,41.8,False,False,False,False,False,False,,True,Normal,100,100,1024,1024,1024,1024,,False,False,False,False,False,0,False,False,False,False,53,7.548,1312,2494,7.548,False,3.776,3.772,0.004,False,False,3.075,109.8,109.7,109.7,,,,,,,,,Idle,,,,,,4,Go Home,False,False,False,False,False,False,False,False,False,False,False,False,47.7061320202969,11.7402183049631,0.0,2351.1,393.7,True,1,1,False,False,False,False,,True,False,False,,164,,16.4,59,SE,E,2.01,2.01,Calm,False,False,,1.11.99,DJI Mini 4 Pro,1581F6Z9C23AL003,6TVFL9Q0M2X6V9,6UZBL93021065D,7BVPM5DDA201D2,191.3,3.5,62.3,27.100304,9.618842,0,0,DJI Mini 4 Pro,1581F6Z9C23AL003,6TVFL9Q0M2X6V9,6UZBL93021065D,7BVPM5DDA201D2,DJI Fly,,1.11.99,7AF13900-8B81-53DC-83AD-699DD8891660,1581F6Z9C23AL003CW6K,6TVFL9Q0M2X6V9,,6UZBL93021065D,7BVPM5DDA201D2,,,,,,
7/11/2026,7:25:09.60 PM,0m 2.6s,2.6,47.7061323420313,11.7402182323566,0.3,0.3,0.6,2389,0.4,0.223694,0.223694,0.223694,0.223694,0,0,-0.894776,0,1.4,1.5,49.6,49.6,352.9,Auto Takeoff,Auto Fly,,25,5,True,,Mini 4 Pro,True,False,,Smart,RC,False,True,False,,,True,,False,False,False,False,False,False,False,False,False,False,0,Follow Yaw,0,0,41.8,41.8,False,False,False,False,False,False,,True,Normal,100,100,1024,1024,1024,1024,,False,False,False,False,False,0,False,False,False,False,53,7.548,1312,2494,7.548,False,3.776,3.772,0.004,False,False,3.075,109.8,109.7,109.7,,,,,,,,,Idle,,,,,,4,Go Home,False,False,False,False,False,False,False,False,False,False,False,False,47.7061320202969,11.7402183049631,0.1,2351.1,393.7,True,1,1,False,False,False,False,,True,False,False,,164,,16.4,59,SE,E,2.23,2.23,Calm,False,False,,1.11.99,DJI Mini 4 Pro,1581F6Z9C23AL003,6TVFL9Q0M2X6V9,6UZBL93021065D,7BVPM5DDA201D2,191.3,3.5,62.3,27.100304,9.618842,0,0,DJI Mini 4 Pro,1581F6Z9C23AL003,6TVFL9Q0M2X6V9,6UZBL93021065D,7BVPM5DDA201D2,DJI Fly,,1.11.99,7AF13900-8B81-53DC-83AD-699DD8891660,1581F6Z9C23AL003CW6K,6TVFL9Q0M2X6V9,,6UZBL93021065D,7BVPM5DDA201D2,,,,,,
7/11/2026,7:25:09.70 PM,0m 2.7s,2.7,47.706132393928,11.7402183039317,0.3,0.3,0.6,2389,0.5,0.223694,0.223694,0.223694,0.223694,0,0,-0.671082,0,1.4,2,50,50,42.8,Auto Takeoff,Auto Fly,,25,5,True,,Mini 4 Pro,True,False,,Smart,RC,False,True,False,,,True,,False,False,False,False,False,False,False,False,False,False,0,Follow Yaw,0,0,41.8,41.8,False,False,False,False,False,False,,True,Normal,100,100,1024,1024,1024,1024,,False,False,False,False,False,0,False,False,False,False,53,7.548,1312,2494,7.548,False,3.776,3.772,0.004,False,False,3.075,109.8,109.7,109.7,,,,,,,,,Idle,,,,,,4,Go Home,False,False,False,False,False,False,False,False,False,False,False,False,47.7061320202969,11.7402183049631,0.1,2351.1,393.7,True,1,1,False,False,False,False,,True,False,False,,164,,16.4,59,SE,E,2.23,2.23,Calm,False,False,,1.11.99,DJI Mini 4 Pro,1581F6Z9C23AL003,6TVFL9Q0M2X6V9,6UZBL93021065D,7BVPM5DDA201D2,191.3,3.5,62.3,27.100304,9.618842,0,0,DJI Mini 4 Pro,1581F6Z9C23AL003,6TVFL9Q0M2X6V9,6UZBL93021065D,7BVPM5DDA201D2,DJI Fly,,1.11.99,7AF13900-8B81-53DC-83AD-699DD8891660,1581F6Z9C23AL003CW6K,6TVFL9Q0M2X6V9,,6UZBL93021065D,7BVPM5DDA201D2,,,,,,
7/11/2026,7:25:09.80 PM,0m 2.8s,2.8,47.7061323767748,11.7402180831902,0.6,0.6,0.9,2389,0.5,0,0.223694,0,0.223694,0,0,-0.671082,0,0.2,2,49.9,49.9,,Auto Takeoff,Auto Fly,,25,5,True,,Mini 4 Pro,True,False,,Smart,RC,False,True,False,,,True,,False,False,False,False,False,False,False,False,False,False,0,Follow Yaw,0,0,41.8,41.8,False,False,False,False,False,False,,True,Normal,100,100,1024,1024,1024,1024,,False,False,False,False,False,0,False,False,False,False,53,7.548,1312,2494,7.548,False,3.776,3.772,0.004,False,False,3.075,109.8,109.7,109.7,,,,,,,,,Idle,,,,,,4,Go Home,False,False,False,False,False,False,False,False,False,False,False,False,47.7061320202969,11.7402183049631,0.1,2351.1,393.7,True,1,1,False,False,False,False,,True,False,False,,164,,16.4,59,SE,E,2.23,2.23,Calm,False,False,,1.11.99,DJI Mini 4 Pro,1581F6Z9C23AL003,6TVFL9Q0M2X6V9,6UZBL93021065D,7BVPM5DDA201D2,191.3,3.5,62.3,27.100304,9.618842,0,0,DJI Mini 4 Pro,1581F6Z9C23AL003,6TVFL9Q0M2X6V9,6UZBL93021065D,7BVPM5DDA201D2,DJI Fly,,1.11.99,7AF13900-8B81-53DC-83AD-699DD8891660,1581F6Z9C23AL003CW6K,6TVFL9Q0M2X6V9,,6UZBL93021065D,7BVPM5DDA201D2,,,,,,
7/11/2026,7:25:09.90 PM,0m 2.9s,2.9,47.7061324407438,11.7402183239534,0.6,0.6,0.9,2389,0.6,0,0.223694,0,0.223694,0,0,-0.671082,0,-0.6,2,49.8,49.8,,Auto Takeoff,Auto Fly,,25,5,True,,Mini 4 Pro,True,False,,Smart,RC,False,True,False,,,True,,False,False,False,False,False,False,False,False,False,False,0,Follow Yaw,0,0,41.8,41.8,False,False,False,False,False,False,,True,Normal,100,100,1024,1024,1024,1024,,False,False,False,False,False,0,False,False,False,False,53,7.548,1312,2494,7.548,False,3.776,3.772,0.004,False,False,3.075,109.8,109.7,109.7,,,,,,,,,Idle,,,,,,4,Go Home,False,False,False,False,False,False,False,False,False,False,False,False,47.7061320202969,11.7402183049631,0.1,2351.1,393.7,True,1,1,False,False,False,False,,True,False,False,,164,,16.4,59,SE,E,2.23,2.23,Calm,False,True,,1.11.99,DJI Mini 4 Pro,1581F6Z9C23AL003,6TVFL9Q0M2X6V9,6UZBL93021065D,7BVPM5DDA201D2,191.3,3.5,62.3,27.100304,9.618842,0,0,DJI Mini 4 Pro,1581F6Z9C23AL003,6TVFL9Q0M2X6V9,6UZBL93021065D,7BVPM5DDA201D2,DJI Fly,,1.11.99,7AF13900-8B81-53DC-83AD-699DD8891660,1581F6Z9C23AL003CW6K,6TVFL9Q0M2X6V9,,6UZBL93021065D,7BVPM5DDA201D2,,,,,,
7/11/2026,7:25:10.00 PM,0m 3.0s,3.0,47.706132506752,11.7402182529449,0.6,0.6,0.9,2389,0.6,0,0.223694,0,0.223694,0,0,-0.671082,0,-0.7,2.1,50,50,,Auto Takeoff,Auto Fly,,26,5,True,,Mini 4 Pro,True,False,,Smart,RC,False,True,False,,,True,,False,False,False,False,False,False,False,False,False,False,0,Follow Yaw,0,0,41.8,41.8,False,False,False,False,False,False,,True,Normal,100,100,1024,1024,1024,1024,,False,False,False,False,False,0,False,False,False,False,53,7.5,1312,2494,7.5,False,3.751,3.75,0.004,False,False,3.075,109.8,109.7,109.7,,,,,,,,,Idle,,,,,,4,Go Home,False,False,False,False,False,False,False,False,False,False,False,False,47.7061320202969,11.7402183049631,0.1,2351.1,393.7,True,1,1,False,False,False,False,,True,False,False,,164,,16.4,59,SE,E,2.46,2.46,Calm,False,False,,1.11.99,DJI Mini 4 Pro,1581F6Z9C23AL003,6TVFL9Q0M2X6V9,6UZBL93021065D,7BVPM5DDA201D2,191.3,3.5,62.3,27.100304,9.618842,0,0,DJI Mini 4 Pro,1581F6Z9C23AL003,6TVFL9Q0M2X6V9,6UZBL93021065D,7BVPM5DDA201D2,DJI Fly,,1.11.99,7AF13900-8B81-53DC-83AD-699DD8891660,1581F6Z9C23AL003CW6K,6TVFL9Q0M2X6V9,,6UZBL93021065D,7BVPM5DDA201D2,,,,,,
7/11/2026,7:25:10.10 PM,0m 3.1s,3.1,47.7061326990104,11.7402184223749,0.9,0.9,1.3,2390,0.7,0,0.223694,0,0.223694,0,0,-0.671082,0,0.1,2.4,49.9,49.9,,Auto Takeoff,Auto Fly,,26,5,True,,Mini 4 Pro,True,False,,Smart,RC,False,True,False,,,True,,False,False,False,False,False,False,False,False,False,False,0,Follow Yaw,0,0,41.8,41.8,False,False,False,False,False,False,,True,Normal,100,100,1024,1024,1024,1024,,False,False,False,False,False,0,False,False,False,False,53,7.5,1312,2494,7.5,False,3.751,3.75,0.004,False,False,3.075,109.8,109.7,109.7,,,,,,,,,Idle,,,,,,4,Go Home,False,False,False,False,False,False,False,False,False,False,False,False,47.7061320202969,11.7402183049631,0.2,2351.1,393.7,True,1,1,False,False,False,False,,True,False,False,,164,,16.4,59,SE,E,2.46,2.46,Calm,False,False,,1.11.99,DJI Mini 4 Pro,1581F6Z9C23AL003,6TVFL9Q0M2X6V9,6UZBL93021065D,7BVPM5DDA201D2,191.3,3.5,62.3,27.100304,9.618842,0,0,DJI Mini 4 Pro,1581F6Z9C23AL003,6TVFL9Q0M2X6V9,6UZBL93021065D,7BVPM5DDA201D2,DJI Fly,,1.11.99,7AF13900-8B81-53DC-83AD-699DD8891660,1581F6Z9C23AL003CW6K,6TVFL9Q0M2X6V9,,6UZBL93021065D,7BVPM5DDA201D2,,,,,,
7/11/2026,7:25:10.20 PM,0m 3.2s,3.2,47.7061327664923,11.7402184233107,0.9,0.9,1.3,2390,0.7,0,0.223694,0,0.223694,0,0,-0.671082,0,0.6,1.9,49.6,49.6,,Auto Takeoff,Auto Fly,,26,5,True,,Mini 4 Pro,True,False,,Smart,RC,False,True,False,,,True,,False,False,False,False,False,False,False,False,False,False,0,Follow Yaw,0,0,41.8,41.8,False,False,False,False,False,False,,True,Normal,100,100,1024,1024,1024,1024,,False,False,False,False,False,0,False,False,False,False,53,7.5,1312,2494,7.5,False,3.751,3.75,0.004,False,False,3.075,109.8,109.7,109.7,,,,,,,,,Idle,,,,,,4,Go Home,False,False,False,False,False,False,False,False,False,False,False,False,47.7061320202969,11.7402183049631,0.2,2351.1,393.7,True,1,1,False,False,False,False,,True,False,False,,164,,16.4,59,SE,E,2.46,2.46,Calm,False,False,,1.11.99,DJI Mini 4 Pro,1581F6Z9C23AL003,6TVFL9Q0M2X6V9,6UZBL93021065D,7BVPM5DDA201D2,191.3,3.5,62.3,27.100304,9.618842,0,0,DJI Mini 4 Pro,1581F6Z9C23AL003,6TVFL9Q0M2X6V9,6UZBL93021065D,7BVPM5DDA201D2,DJI Fly,,1.11.99,7AF13900-8B81-53DC-83AD-699DD8891660,1581F6Z9C23AL003CW6K,6TVFL9Q0M2X6V9,,6UZBL93021065D,7BVPM5DDA201D2,,,,,,
7/11/2026,7:25:10.30 PM,0m 3.3s,3.3,47.7061327981469,11.7402186962105,0.9,0.9,1.3,2390,0.8,0,0.223694,0,0.223694,0,0,-0.894776,0,0.5,1.7,49.6,49.6,,Auto Takeoff,Auto Fly,,26,5,True,,Mini 4 Pro,True,False,,Smart,RC,False,True,False,,,True,,False,False,False,False,False,False,False,False,False,False,0,Follow Yaw,0,0,41.8,41.8,False,False,False,False,False,False,,True,Normal,100,100,1024,1024,1024,1024,,False,False,False,False,False,0,False,False,False,False,53,7.5,1312,2494,7.5,False,3.751,3.75,0.004,False,False,3.075,109.8,109.7,109.7,,,,,,,,,Idle,,,,,,4,Go Home,False,False,False,False,False,False,False,False,False,False,False,False,47.7061320202969,11.7402183049631,0.2,2351.1,393.7,True,1,1,False,False,False,False,,True,False,False,,164,,16.4,59,SE,E,2.46,2.46,Calm,False,True,,1.11.99,DJI Mini 4 Pro,1581F6Z9C23AL003,6TVFL9Q0M2X6V9,6UZBL93021065D,7BVPM5DDA201D2,191.3,3.5,62.3,27.100304,9.618842,0,0,DJI Mini 4 Pro,1581F6Z9C23AL003,6TVFL9Q0M2X6V9,6UZBL93021065D,7BVPM5DDA201D2,DJI Fly,,1.11.99,7AF13900-8B81-53DC-83AD-699DD8891660,1581F6Z9C23AL003CW6K,6TVFL9Q0M2X6V9,,6UZBL93021065D,7BVPM5DDA201D2,,,,,Home point updated (Code: 3000001).,
7/11/2026,7:25:10.36 PM,0m 3.4s,3.4,47.7061328417968,11.7402187371452,1.3,1.3,1.6,2390,0.8,0,0.223694,0,0.223694,0,0,-0.894776,0,0.4,1.4,50,50,,Auto Takeoff,Auto Fly,,26,5,True,,Mini 4 Pro,True,False,,Smart,RC,False,True,False,,,True,,False,False,False,False,False,False,False,False,False,False,0,Follow Yaw,0,0,41.8,41.8,False,False,False,False,False,False,,True,Normal,100,100,1024,1024,1024,1024,,False,False,False,False,False,0,False,False,False,False,53,7.5,1312,2494,7.5,False,3.751,3.75,0.004,False,False,3.075,109.8,109.7,109.7,,,,,,,,,Idle,,,,,,4,Go Home,False,False,False,False,False,False,False,False,False,False,False,False,47.7061320202969,11.7402183049631,0.3,2351.1,393.7,True,1,1,False,False,False,False,,True,False,False,,164,,16.4,59,SE,E,2.46,2.46,Calm,False,False,,1.11.99,DJI Mini 4 Pro,1581F6Z9C23AL003,6TVFL9Q0M2X6V9,6UZBL93021065D,7BVPM5DDA201D2,191.3,3.5,62.3,27.100304,9.618842,0,0,DJI Mini 4 Pro,1581F6Z9C23AL003,6TVFL9Q0M2X6V9,6UZBL93021065D,7BVPM5DDA201D2,DJI Fly,,1.11.99,7AF13900-8B81-53DC-83AD-699DD8891660,1581F6Z9C23AL003CW6K,6TVFL9Q0M2X6V9,,6UZBL93021065D,7BVPM5DDA201D2,,,,,,
7/11/2026,7:25:10.50 PM,0m 3.5s,3.5,47.7061328861879,11.7402188126165,1.3,1.3,1.6,2390,0.8,0,0.223694,0,0.223694,0,0,-1.11847,0,0.8,1.5,50,50,,Auto Takeoff,Auto Fly,,26,5,True,,Mini 4 Pro,True,False,,Smart,RC,False,True,False,,,True,,False,False,False,False,False,False,False,False,False,False,0,Follow Yaw,0,0,41.8,41.8,False,False,False,False,False,False,,True,Normal,100,100,1024,1024,1301,1024,C,False,False,False,False,False,0,False,False,False,False,53,7.5,1312,2494,7.5,False,3.751,3.75,0.004,False,False,3.075,109.8,109.7,109.7,,,,,,,,,Idle,,,,,,4,Go Home,False,False,False,False,False,False,False,False,False,False,False,False,47.7061320202969,11.7402183049631,0.3,2351.1,393.7,True,1,1,False,False,False,False,,True,False,False,,164,,16.4,59,SE,E,2.46,2.46,Calm,False,False,,1.11.99,DJI Mini 4 Pro,1581F6Z9C23AL003,6TVFL9Q0M2X6V9,6UZBL93021065D,7BVPM5DDA201D2,191.3,3.5,62.3,27.100304,9.618842,0,0,DJI Mini 4 Pro,1581F6Z9C23AL003,6TVFL9Q0M2X6V9,6UZBL93021065D,7BVPM5DDA201D2,DJI Fly,,1.11.99,7AF13900-8B81-53DC-83AD-699DD8891660,1581F6Z9C23AL003CW6K,6TVFL9Q0M2X6V9,,6UZBL93021065D,7BVPM5DDA201D2,,,,,,
7/11/2026,7:25:10.56 PM,0m 3.6s,3.6,47.7061328303756,11.7402191513046,1.6,1.6,1.9,2390,0.9,0,0.223694,0,0.223694,0,0,-1.11847,0,1.4,1.6,50.1,50.1,,Auto Takeoff,Auto Fly,,26,5,True,,Mini 4 Pro,True,False,,Smart,RC,False,True,False,,,True,,False,False,False,False,False,False,False,False,False,False,0,Follow Yaw,0,0,41.8,41.8,False,False,False,False,False,False,,True,Normal,100,100,1024,1024,1492,1024,C,False,False,False,False,False,0,False,False,False,False,53,7.5,1312,2494,7.5,False,3.751,3.75,0.004,False,False,3.075,109.8,109.7,109.7,,,,,,,,,Idle,,,,,,4,Go Home,False,False,False,False,False,False,False,False,False,False,False,False,47.7061320202969,11.7402183049631,0.3,2351.1,393.7,True,1,1,False,False,False,False,,True,False,False,,164,,16.4,59,S,SE,2.46,2.46,Calm,False,False,,1.11.99,DJI Mini 4 Pro,1581F6Z9C23AL003,6TVFL9Q0M2X6V9,6UZBL93021065D,7BVPM5DDA201D2,191.3,3.5,62.3,27.100304,9.618842,0,0,DJI Mini 4 Pro,1581F6Z9C23AL003,6TVFL9Q0M2X6V9,6UZBL93021065D,7BVPM5DDA201D2,DJI Fly,,1.11.99,7AF13900-8B81-53DC-83AD-699DD8891660,1581F6Z9C23AL003CW6K,6TVFL9Q0M2X6V9,,6UZBL93021065D,7BVPM5DDA201D2,,,,,,
7/11/2026,7:25:10.66 PM,0m 3.7s,3.7,47.7061328419296,11.7402192446012,1.6,1.6,2.2,2390,0.9,0,0.223694,0,0.223694,0,0,-1.342164,0,1.2,1,50.2,50.2,,Auto Takeoff,Auto Fly,,26,5,True,,Mini 4 Pro,True,False,,Smart,RC,False,True,False,,,True,,False,False,False,False,False,False,False,False,False,False,0,Follow Yaw,0,0,41.8,41.8,False,False,False,False,False,False,,True,Normal,100,100,1024,1024,1638,1024,C,False,False,False,False,False,0,False,False,False,False,53,7.5,1312,2494,7.5,False,3.751,3.75,0.004,False,False,3.075,109.8,109.7,109.7,,,,,,,,,Idle,,,,,,4,Go Home,False,False,False,False,False,False,False,False,False,False,False,False,47.7061320202969,11.7402183049631,0.3,2351.1,393.7,True,1,1,False,False,False,False,,True,False,False,,164,,16.4,59,S,SE,2.46,2.46,Calm,False,False,,1.11.99,DJI Mini 4 Pro,1581F6Z9C23AL003,6TVFL9Q0M2X6V9,6UZBL93021065D,7BVPM5DDA201D2,191.3,3.5,62.3,27.100304,9.618842,0,0,DJI Mini 4 Pro,1581F6Z9C23AL003,6TVFL9Q0M2X6V9,6UZBL93021065D,7BVPM5DDA201D2,DJI Fly,,1.11.99,7AF13900-8B81-53DC-83AD-699DD8891660,1581F6Z9C23AL003CW6K,6TVFL9Q0M2X6V9,,6UZBL93021065D,7BVPM5DDA201D2,,,,,,
7/11/2026,7:25:10.76 PM,0m 3.8s,3.8,47.7061328420196,11.7402193272536,1.9,1.9,2.6,2391,0.9,0,0.223694,0,0.223694,0,0,-2.013246,0,0.6,0.5,49.5,49.5,,Auto Takeoff,Auto Fly,,26,5,True,,Mini 4 Pro,True,False,,Smart,RC,False,True,False,,,True,,False,False,False,False,False,False,False,False,False,False,0,Follow Yaw,0,0,41.8,41.8,False,False,False,False,False,False,,True,Normal,100,100,1024,1024,1684,1024,C,False,False,False,False,False,0,False,False,False,False,53,7.5,1312,2494,7.5,False,3.751,3.75,0.004,False,False,3.075,109.8,109.7,109.7,,,,,,,,,Idle,,,,,,4,Go Home,False,False,False,False,False,False,False,False,False,False,False,False,47.7061320202969,11.7402183049631,0.3,2351.1,393.7,True,1,1,False,False,False,False,,True,False,False,,164,,16.4,59,S,SE,2.68,2.68,Calm,False,False,,1.11.99,DJI Mini 4 Pro,1581F6Z9C23AL003,6TVFL9Q0M2X6V9,6UZBL93021065D,7BVPM5DDA201D2,191.3,3.5,62.3,27.100304,9.618842,0,0,DJI Mini 4 Pro,1581F6Z9C23AL003,6TVFL9Q0M2X6V9,6UZBL93021065D,7BVPM5DDA201D2,DJI Fly,,1.11.99,7AF13900-8B81-53DC-83AD-699DD8891660,1581F6Z9C23AL003CW6K,6TVFL9Q0M2X6V9,,6UZBL93021065D,7BVPM5DDA201D2,,,,,,
7/11/2026,7:25:10.86 PM,0m 3.9s,3.9,47.7061328071862,11.7402195824299,2.2,2.2,2.9,2391,1.0,0,0.223694,0,0.223694,0,0,-2.908022,0,0.7,0.9,49.9,49.9,,Auto Takeoff,Auto Fly,,26,5,True,,Mini 4 Pro,True,False,,Smart,RC,False,True,False,,,True,,False,False,False,False,False,False,False,False,False,False,0,Follow Yaw,0,0,41.8,41.8,False,False,False,False,False,False,,True,Normal,100,100,1024,1024,1684,1024,C,False,False,False,False,False,0,False,False,False,False,53,7.5,1312,2494,7.5,False,3.751,3.75,0.004,False,False,3.075,109.8,109.7,109.7,,,,,,,,,Idle,,,,,,4,Go Home,False,False,False,False,False,False,False,False,False,False,False,False,47.7061320202969,11.7402183049631,0.4,2351.1,393.7,True,1,1,False,False,False,False,,True,False,False,,164,,16.4,59,S,SE,2.68,2.68,Calm,False,False,,1.11.99,DJI Mini 4 Pro,1581F6Z9C23AL003,6TVFL9Q0M2X6V9,6UZBL93021065D,7BVPM5DDA201D2,191.3,3.5,62.3,27.100304,9.618842,0,0,DJI Mini 4 Pro,1581F6Z9C23AL003,6TVFL9Q0M2X6V9,6UZBL93021065D,7BVPM5DDA201D2,DJI Fly,,1.11.99,7AF13900-8B81-53DC-83AD-699DD8891660,1581F6Z9C23AL003CW6K,6TVFL9Q0M2X6V9,,6UZBL93021065D,7BVPM5DDA201D2,,,,,,
7/11/2026,7:25:10.96 PM,0m 4.0s,4.0,47.7061328642366,11.7402197791964,2.9,2.9,3.2,2392,1.1,0,0.223694,0,0.223694,0,0,-3.579104,0,2,1.2,49.7,49.7,,Auto Takeoff,Auto Fly,,26,5,True,,Mini 4 Pro,True,False,,Smart,RC,False,True,False,,,True,,False,False,False,False,False,False,False,False,False,False,0,Follow Yaw,0,0,41.8,41.8,False,False,False,False,False,False,,True,Normal,100,100,1024,1024,1339,1024,C,False,False,False,False,False,0,False,False,False,False,53,7.5,1311,2494,7.5,False,3.751,3.75,0.004,False,False,5.754,109.8,109.7,109.7,,,,,,,,,Idle,,,,,,4,Go Home,False,False,False,False,False,False,False,False,False,False,False,False,47.7061320202969,11.7402183049631,0.4,2351.1,393.7,True,1,1,False,False,False,False,,True,False,False,,164,,16.4,59,S,SE,2.68,2.68,Calm,False,False,,1.11.99,DJI Mini 4 Pro,1581F6Z9C23AL003,6TVFL9Q0M2X6V9,6UZBL93021065D,7BVPM5DDA201D2,191.3,3.5,62.3,27.100304,9.618842,0,0,DJI Mini 4 Pro,1581F6Z9C23AL003,6TVFL9Q0M2X6V9,6UZBL93021065D,7BVPM5DDA201D2,DJI Fly,,1.11.99,7AF13900-8B81-53DC-83AD-699DD8891660,1581F6Z9C23AL003CW6K,6TVFL9Q0M2X6V9,,6UZBL93021065D,7BVPM5DDA201D2,,,,,,
7/11/2026,7:25:11.07 PM,0m 4.1s,4.1,47.7061328050399,11.7402196639937,3.6,3.6,3.9,2392,1.1,0,0.223694,0,0.223694,0,0,-4.250186,0,2,1.1,49.7,49.7,,Auto Takeoff,Auto Fly,,27,5,True,,Mini 4 Pro,True,False,,Smart,RC,False,True,False,,,True,,False,False,False,False,False,False,False,False,False,False,0,Follow Yaw,0,0,41.8,41.8,False,False,False,False,False,False,,True,Normal,100,100,1024,1024,1024,1024,C,False,False,False,False,False,0,False,False,False,False,53,7.5,1311,2494,7.5,False,3.751,3.75,0.004,False,False,5.754,109.8,109.7,109.7,,,,,,,,,Idle,,,,,,4,Go Home,False,False,False,False,False,False,False,False,False,False,False,False,47.7061320202969,11.7402183049631,0.4,2351.1,393.7,True,1,1,False,False,False,False,,True,False,False,,164,,16.4,59,E,NE,2.68,2.68,Calm,True,False,,1.11.99,DJI Mini 4 Pro,1581F6Z9C23AL003,6TVFL9Q0M2X6V9,6UZBL93021065D,7BVPM5DDA201D2,191.3,3.5,62.3,27.100304,9.618842,0,0,DJI Mini 4 Pro,1581F6Z9C23AL003,6TVFL9Q0M2X6V9,6UZBL93021065D,7BVPM5DDA201D2,DJI Fly,,1.11.99,7AF13900-8B81-53DC-83AD-699DD8891660,1581F6Z9C23AL003CW6K,6TVFL9Q0M2X6V9,,6UZBL93021065D,7BVPM5DDA201D2,,,,,,
7/11/2026,7:25:11.17 PM,0m 4.2s,4.2,47.7061327859032,11.7402197068509,4.2,4.2,4.9,2393,1.1,0,0.223694,0,0.223694,0,0,-4.47388,0,0.9,0.8,49.4,49.4,,P-GPS (Bypass),Auto Fly,,27,5,True,,Mini 4 Pro,True,False,,Smart,RC,False,True,False,,,True,,False,False,False,False,False,False,False,False,False,False,0,Follow Yaw,0,0,41.8,41.8,False,False,False,False,False,False,,True,Normal,100,100,1024,1024,1024,1024,C,False,False,False,False,False,0,False,False,False,False,53,7.5,1311,2494,7.5,False,3.751,3.75,0.004,False,False,5.754,109.8,109.7,109.7,,,,,,,,,Idle,,,,,,4,Go Home,False,False,False,False,False,False,False,False,False,False,False,False,47.7061320202969,11.7402183049631,0.4,2351.1,393.7,True,1,1,False,False,False,False,,True,False,False,,164,,16.4,59,SE,E,2.68,2.68,Calm,False,True,,1.11.99,DJI Mini 4 Pro,1581F6Z9C23AL003,6TVFL9Q0M2X6V9,6UZBL93021065D,7BVPM5DDA201D2,191.3,3.5,62.3,27.100304,9.618842,0,0,DJI Mini 4 Pro,1581F6Z9C23AL003,6TVFL9Q0M2X6V9,6UZBL93021065D,7BVPM5DDA201D2,DJI Fly,,1.11.99,7AF13900-8B81-53DC-83AD-699DD8891660,1581F6Z9C23AL003CW6K,6TVFL9Q0M2X6V9,,6UZBL93021065D,7BVPM5DDA201D2,,,,,Flight mode changed to P-GPS (Bypass).,
7/11/2026,7:25:11.27 PM,0m 4.3s,4.3,47.706132659653,11.7402195327545,4.9,4.9,5.5,2394,1.2,0,0.223694,0,0.223694,0,0,-4.47388,0,0.5,0.6,49.6,49.6,,P-GPS (Bypass),Auto Fly,,27,5,True,,Mini 4 Pro,True,False,,Smart,RC,False,True,False,,,True,,False,False,False,False,False,False,False,False,False,False,0,Follow Yaw,0,0,41.8,41.8,False,False,False,False,False,False,,True,Normal,100,100,1024,1024,1024,1024,C,False,False,False,False,False,0,False,False,False,False,53,7.5,1311,2494,7.5,False,3.751,3.75,0.004,False,False,5.754,109.8,109.7,109.7,,,,,,,,,Idle,,,,,,4,Go Home,False,False,False,False,False,False,False,False,False,False,False,False,47.7061320202969,11.7402183049631,0.3,2351.1,393.7,True,1,1,False,False,False,False,,True,False,False,,164,,16.4,59,SE,E,2.68,2.68,Calm,False,False,,1.11.99,DJI Mini 4 Pro,1581F6Z9C23AL003,6TVFL9Q0M2X6V9,6UZBL93021065D,7BVPM5DDA201D2,191.3,3.5,62.3,27.100304,9.618842,0,0,DJI Mini 4 Pro,1581F6Z9C23AL003,6TVFL9Q0M2X6V9,6UZBL93021065D,7BVPM5DDA201D2,DJI Fly,,1.11.99,7AF13900-8B81-53DC-83AD-699DD8891660,1581F6Z9C23AL003CW6K,6TVFL9Q0M2X6V9,,6UZBL93021065D,7BVPM5DDA201D2,,,,,,
7/11/2026,7:25:11.37 PM,0m 4.4s,4.4,47.7061326323938,11.7402194834037,5.5,5.5,6.2,2394,1.2,0,0.223694,0,0.223694,0,0,-4.026492,0,0.2,1,49.8,49.8,,P-GPS (Bypass),Auto Fly,,27,5,True,,Mini 4 Pro,True,False,,Smart,RC,False,True,False,,,True,,False,False,False,False,False,False,False,False,False,False,0,Follow Yaw,0,0,41.8,41.8,False,False,False,False,False,False,,True,Normal,100,100,1024,1024,1024,1024,C,False,False,False,False,False,0,False,False,False,False,53,7.5,1311,2494,7.5,False,3.751,3.75,0.004,False,False,5.754,109.8,109.7,109.7,,,,,,,,,Idle,,,,,,4,Go Home,False,False,False,False,False,False,False,False,False,False,False,False,47.7061320202969,11.7402183049631,0.3,2351.1,393.7,True,1,1,False,False,False,False,,True,False,False,,164,,16.4,59,SE,E,2.68,2.68,Calm,False,False,,1.11.99,DJI Mini 4 Pro,1581F6Z9C23AL003,6TVFL9Q0M2X6V9,6UZBL93021065D,7BVPM5DDA201D2,191.3,3.5,62.3,27.100304,9.618842,0,0,DJI Mini 4 Pro,1581F6Z9C23AL003,6TVFL9Q0M2X6V9,6UZBL93021065D,7BVPM5DDA201D2,DJI Fly,,1.11.99,7AF13900-8B81-53DC-83AD-699DD8891660,1581F6Z9C23AL003CW6K,6TVFL9Q0M2X6V9,,6UZBL93021065D,7BVPM5DDA201D2,,,,,,
7/11/2026,7:25:11.47 PM,0m 4.5s,4.5,47.7061325992526,11.7402194207985,6.2,6.2,6.5,2395,1.2,0,0.223694,0,0.223694,0,0,-3.35541,0,0,0,49.4,49.4,,P-GPS (Bypass),Auto Fly,,27,5,True,,Mini 4 Pro,True,False,,Smart,RC,False,True,False,,,True,,False,False,False,False,False,False,False,False,False,False,0,Follow Yaw,0,0,41.8,41.8,False,False,False,False,False,False,,True,Normal,100,100,1024,1024,1024,1024,C,False,False,False,False,False,0,False,False,False,False,53,7.5,1311,2494,7.5,False,3.751,3.75,0.004,False,False,5.754,109.8,109.7,109.7,,,,,,,,,Idle,,,,,,4,Go Home,False,False,False,False,False,False,False,False,False,False,False,False,47.7061320202969,11.7402183049631,0.3,2351.1,393.7,True,1,1,False,False,False,False,,True,False,False,,164,,16.4,59,SE,E,2.68,2.68,Calm,False,False,,1.11.99,DJI Mini 4 Pro,1581F6Z9C23AL003,6TVFL9Q0M2X6V9,6UZBL93021065D,7BVPM5DDA201D2,191.3,3.5,62.3,27.100304,9.618842,0,0,DJI Mini 4 Pro,1581F6Z9C23AL003,6TVFL9Q0M2X6V9,6UZBL93021065D,7BVPM5DDA201D2,DJI Fly,,1.11.99,7AF13900-8B81-53DC-83AD-699DD8891660,1581F6Z9C23AL003CW6K,6TVFL9Q0M2X6V9,,6UZBL93021065D,7BVPM5DDA201D2,,,,,,
7/11/2026,7:25:11.57 PM,0m 4.6s,4.6,47.7061325708967,11.7402193318818,6.5,6.5,6.8,2395,1.2,0,0.223694,0,0.223694,0,0,-2.684328,0,-0.6,0.8,49.4,49.4,,P-GPS (Bypass),Auto Fly,,27,5,True,,Mini 4 Pro,True,False,,Smart,RC,False,True,False,,,True,,False,False,False,False,False,False,False,False,False,False,0,Follow Yaw,0,0,41.8,41.8,False,False,False,False,False,False,,True,Normal,100,100,1024,1024,1024,1024,C,False,False,False,False,False,0,False,False,False,False,53,7.439,1311,2494,7.439,False,3.722,3.717,0.005,False,False,5.754,109.8,109.7,109.7,,,,,,,,,Idle,,,,,,4,Go Home,False,False,False,False,False,False,False,False,False,False,False,False,47.7061320202969,11.7402183049631,0.3,2351.1,393.7,True,1,1,False,False,False,False,,True,False,False,,164,,16.4,59,SE,E,2.68,2.68,Calm,False,False,,1.11.99,DJI Mini 4 Pro,1581F6Z9C23AL003,6TVFL9Q0M2X6V9,6UZBL93021065D,7BVPM5DDA201D2,191.3,3.5,62.3,27.100304,9.618842,0,0,DJI Mini 4 Pro,1581F6Z9C23AL003,6TVFL9Q0M2X6V9,6UZBL93021065D,7BVPM5DDA201D2,DJI Fly,,1.11.99,7AF13900-8B81-53DC-83AD-699DD8891660,1581F6Z9C23AL003CW6K,6TVFL9Q0M2X6V9,,6UZBL93021065D,7BVPM5DDA201D2,,,,,,
7/11/2026,7:25:11.68 PM,0m 4.7s,4.7,47.7061325480928,11.7402192274316,6.8,6.8,7.2,2396,1.3,0,0.223694,0,0.223694,0,0,-1.789552,0,-0.3,1.6,49.5,49.5,,P-GPS (Bypass),Auto Fly,,27,5,True,,Mini 4 Pro,True,False,,Smart,RC,False,True,False,,,True,,False,False,False,False,False,False,False,False,False,False,0,Follow Yaw,0,0,41.8,41.8,False,False,False,False,False,False,,True,Normal,100,100,1024,1060,1024,1024,C,False,False,False,False,False,0,False,False,False,False,53,7.439,1311,2494,7.439,False,3.722,3.717,0.005,False,False,5.754,109.8,109.7,109.7,,,,,,,,,Idle,,,,,,4,Go Home,False,False,False,False,False,False,False,False,False,False,False,False,47.7061320202969,11.7402183049631,0.2,2351.1,393.7,True,1,1,False,False,False,False,,True,False,False,,164,,16.4,59,E,NE,2.68,2.68,Calm,True,False,,1.11.99,DJI Mini 4 Pro,1581F6Z9C23AL003,6TVFL9Q0M2X6V9,6UZBL93021065D,7BVPM5DDA201D2,191.3,3.5,62.3,27.100304,9.618842,0,0,DJI Mini 4 Pro,1581F6Z9C23AL003,6TVFL9Q0M2X6V9,6UZBL93021065D,7BVPM5DDA201D2,DJI Fly,,1.11.99,7AF13900-8B81-53DC-83AD-699DD8891660,1581F6Z9C23AL003CW6K,6TVFL9Q0M2X6V9,,6UZBL93021065D,7BVPM5DDA201D2,,,,,,
7/11/2026,7:25:11.78 PM,0m 4.8s,4.8,47.7061324877995,11.7402190768265,7.2,7.2,7.2,2396,1.3,0,0.223694,0,0.223694,0,0,-1.11847,0,-0.1,1.4,49.5,49.5,,P-GPS (Bypass),Auto Fly,,27,5,True,,Mini 4 Pro,True,False,,Smart,RC,False,True,False,,,True,,False,False,False,False,False,False,False,False,False,False,0,Follow Yaw,0,0,41.8,41.8,False,False,False,False,False,False,,True,Normal,100,100,1024,1374,1024,1024,C,False,False,False,False,False,0,False,False,False,False,53,7.439,1311,2494,7.439,False,3.722,3.717,0.005,False,False,5.754,109.8,109.7,109.7,,,,,,,,,Idle,,,,,,4,Go Home,False,False,False,False,False,False,False,False,False,False,False,False,47.7061320202969,11.7402183049631,0.2,2351.1,393.7,True,1,1,False,False,False,False,,True,False,False,,164,,16.4,59,E,NE,2.68,2.68,Calm,True,False,,1.11.99,DJI Mini 4 Pro,1581F6Z9C23AL003,6TVFL9Q0M2X6V9,6UZBL93021065D,7BVPM5DDA201D2,191.3,3.5,62.3,27.100304,9.618842,0,0,DJI Mini 4 Pro,1581F6Z9C23AL003,6TVFL9Q0M2X6V9,6UZBL93021065D,7BVPM5DDA201D2,DJI Fly,,1.11.99,7AF13900-8B81-53DC-83AD-699DD8891660,1581F6Z9C23AL003CW6K,6TVFL9Q0M2X6V9,,6UZBL93021065D,7BVPM5DDA201D2,,,,,,
7/11/2026,7:25:11.88 PM,0m 4.9s,4.9,47.7061324394157,11.7402190919334,7.2,7.2,7.2,2396,1.3,0,0.223694,0,0.223694,0,0,-0.447388,0,-0.6,1.1,49.5,49.5,,P-GPS (Bypass),Auto Fly,,27,5,True,,Mini 4 Pro,True,False,,Smart,RC,False,True,False,,,True,,False,False,False,False,False,False,False,False,False,False,0,Follow Yaw,0,0,41.8,41.8,False,False,False,False,False,False,,True,Normal,100,100,1024,1684,1024,1024,C,False,False,False,False,False,0,False,False,False,False,53,7.439,1311,2494,7.439,False,3.722,3.717,0.005,False,False,5.754,109.8,109.7,109.7,,,,,,,,,Idle,,,,,,4,Go Home,False,False,False,False,False,False,False,False,False,False,False,False,47.7061320202969,11.7402183049631,0.2,2351.1,393.7,True,1,1,False,False,False,False,,True,False,False,,164,,16.4,59,E,NE,2.46,2.68,Calm,True,False,,1.11.99,DJI Mini 4 Pro,1581F6Z9C23AL003,6TVFL9Q0M2X6V9,6UZBL93021065D,7BVPM5DDA201D2,191.3,3.5,62.3,27.100304,9.618842,0,0,DJI Mini 4 Pro,1581F6Z9C23AL003,6TVFL9Q0M2X6V9,6UZBL93021065D,7BVPM5DDA201D2,DJI Fly,,1.11.99,7AF13900-8B81-53DC-83AD-699DD8891660,1581F6Z9C23AL003CW6K,6TVFL9Q0M2X6V9,,6UZBL93021065D,7BVPM5DDA201D2,,,,,,
